<?xml version="1.0" encoding="utf-8"?>
<ArrayOfVolunteer xmlns:xsi="http://www.w3.org/2001/XMLSchema-instance" xmlns:xsd="http://www.w3.org/2001/XMLSchema">
  <Volunteer>
    <Id>328462635</Id>
    <Name>Dani Levy</Name>
    <Phone>0504133382</Phone>
    <Email>Dani Levy@gmail.com</Email>
    <Role>Volunteer</Role>
    <Active>true</Active>
    <DistanceType>TraveledByCar</DistanceType>
    <Latitude>32.068281</Latitude>
    <Longitude>34.770236</Longitude>
    <Password>Dani Levy0504133382</Password>
    <Address>השומר 10, תל אביב</Address>
    <MaxDistanceForCall>1.826419173043925</MaxDistanceForCall>
  </Volunteer>
  <Volunteer>
    <Id>327773271</Id>
    <Name>Eli Amar</Name>
    <Phone>0556726282</Phone>
    <Email>Eli Amar@gmail.com</Email>
    <Role>Manager</Role>
    <Active>false</Active>
    <DistanceType>walking</DistanceType>
    <Latitude>31.793755</Latitude>
    <Longitude>35.241553</Longitude>
    <Password>Eli Amar0556726282</Password>
    <Address>הר הצופים 3, ירושלים</Address>
    <MaxDistanceForCall>1000.11696844001701</MaxDistanceForCall>
  </Volunteer>
  <Volunteer>
    <Id>327883591</Id>
    <Name>Yair Cohen</Name>
    <Phone>0527175821</Phone>
    <Email>Yair Cohen@gmail.com</Email>
    <Role>Volunteer</Role>
    <Active>true</Active>
    <DistanceType>TraveledByCar</DistanceType>
    <Latitude>32.016736</Latitude>
    <Longitude>34.771445</Longitude>
    <Password>Yair Cohen0527175821</Password>
    <Address>ביאליק 25, חולון</Address>
    <MaxDistanceForCall>45.85869023035093</MaxDistanceForCall>
  </Volunteer>
  <Volunteer>
    <Id>327887048</Id>
    <Name>Ariela Levin</Name>
    <Phone>0527175820</Phone>
    <Email>Ariela Levin@gmail.com</Email>
    <Role>Manager</Role>
    <Active>false</Active>
    <DistanceType>Aerial</DistanceType>
    <Latitude>32.078932</Latitude>
    <Longitude>34.786432</Longitude>
    <Password>Ariela Levin0527175820</Password>
    <Address>דרך בגין 132, תל אביב</Address>
    <MaxDistanceForCall>24.265003872741957</MaxDistanceForCall>
  </Volunteer>
  <Volunteer>
    <Id>327934857</Id>
    <Name>Dina Klein</Name>
    <Phone>0504160838</Phone>
    <Email>Dina Klein@gmail.com</Email>
    <Role>Volunteer</Role>
    <Active>true</Active>
    <DistanceType>Aerial</DistanceType>
    <Latitude>32.051958</Latitude>
    <Longitude>34.758285</Longitude>
    <Password>Dina Klein0504160838</Password>
    <Address>שדרות ירושלים 45, יפו</Address>
    <MaxDistanceForCall>7.777426710771235</MaxDistanceForCall>
  </Volunteer>
  <Volunteer>
    <Id>328115522</Id>
    <Name>Shira Israelof</Name>
    <Phone>0504156891</Phone>
    <Email>Shira Israelof@gmail.com</Email>
    <Role>Manager</Role>
    <Active>false</Active>
    <DistanceType>Aerial</DistanceType>
    <Latitude>32.081943</Latitude>
    <Longitude>34.768878</Longitude>
    <Password>Shira Israelof0504156891</Password>
    <Address>בן יהודה 34, תל אביב</Address>
    <MaxDistanceForCall>42.50876484548144</MaxDistanceForCall>
  </Volunteer>
  <Volunteer>
    <Id>328118245</Id>
    <Name>David Gold</Name>
    <Phone>0503133382</Phone>
    <Email>David Gold@gmail.com</Email>
    <Role>Volunteer</Role>
    <Active>true</Active>
    <DistanceType>TraveledByCar</DistanceType>
    <Latitude>32.687209</Latitude>
    <Longitude>35.420792</Longitude>
    <Password>David Gold0503133382</Password>
    <Address>המושבה 7, כפר תבור</Address>
    <MaxDistanceForCall>6.213097815638075</MaxDistanceForCall>
  </Volunteer>
  <Volunteer>
    <Id>328119425</Id>
    <Name>Rachel Green</Name>
    <Phone>0556724282</Phone>
    <Email>Rachel Green@gmail.com</Email>
    <Role>Manager</Role>
    <Active>false</Active>
    <DistanceType>TraveledByCar</DistanceType>
    <Latitude>34.769863</Latitude>
    <Longitude>32.068588</Longitude>
    <Password>Rachel Green0556724282</Password>
    <Address>אלנבי 99, תל אביב</Address>
    <MaxDistanceForCall>7.192876600098935</MaxDistanceForCall>
  </Volunteer>
  <Volunteer>
    <Id>328128061</Id>
    <Name>Miriam Azulay</Name>
    <Phone>0527175221</Phone>
    <Email>Miriam Azulay@gmail.com</Email>
    <Role>Volunteer</Role>
    <Active>true</Active>
    <DistanceType>Aerial</DistanceType>
    <Latitude>32.434046</Latitude>
    <Longitude>34.918386</Longitude>
    <Password>Miriam Azulay0527175221</Password>
    <Address>הרצל 60, חדרה</Address>
    <MaxDistanceForCall>8.930634926967207</MaxDistanceForCall>
  </Volunteer>
  <Volunteer>
    <Id>328159801</Id>
    <Name>Eyal Shani</Name>
    <Phone>0528175820</Phone>
    <Email>Eyal Shani@gmail.com</Email>
    <Role>Manager</Role>
    <Active>false</Active>
    <DistanceType>TraveledByCar</DistanceType>
    <Latitude>31.960252</Latitude>
    <Longitude>34.804289</Longitude>
    <Password>Eyal Shani0528175820</Password>
    <Address>רוטשילד 18, ראשון לציון</Address>
    <MaxDistanceForCall>22.2993412284374</MaxDistanceForCall>
  </Volunteer>
  <Volunteer>
    <Id>328177191</Id>
    <Name>Noa Bar</Name>
    <Phone>0504160837</Phone>
    <Email>Noa Bar@gmail.com</Email>
    <Role>Volunteer</Role>
    <Active>true</Active>
    <DistanceType>Aerial</DistanceType>
    <Latitude>32.090468</Latitude>
    <Longitude>34.878975</Longitude>
    <Password>Noa Bar0504160837</Password>
    <Address>ז'בוטינסקי 33, פתח תקווה</Address>
    <MaxDistanceForCall>42.361799201239265</MaxDistanceForCall>
  </Volunteer>
  <Volunteer>
    <Id>328178371</Id>
    <Name>Yael Harel</Name>
    <Phone>0504756891</Phone>
    <Email>Yael Harel@gmail.com</Email>
    <Role>Manager</Role>
    <Active>false</Active>
    <DistanceType>TraveledByCar</DistanceType>
    <Latitude>32.077366</Latitude>
    <Longitude>34.78157</Longitude>
    <Password>Yael Harel0504756891</Password>
    <Address>אבן גבירול 22, תל אביב</Address>
    <MaxDistanceForCall>34.00272481036255</MaxDistanceForCall>
  </Volunteer>
  <Volunteer>
    <Id>328183934</Id>
    <Name>zipi salomon</Name>
    <Phone>0504113382</Phone>
    <Email>zipi salomon@gmail.com</Email>
    <Role>Volunteer</Role>
    <Active>true</Active>
    <DistanceType>Aerial</DistanceType>
    <Latitude>31.906328</Latitude>
    <Longitude>35.004601</Longitude>
    <Password>zipi salomon0504113382</Password>
    <Address>שדרות רבין 18, מודיעין</Address>
    <MaxDistanceForCall>43.92132891535089</MaxDistanceForCall>
  </Volunteer>
  <Volunteer>
    <Id>328216437</Id>
    <Name>yaeli shushan</Name>
    <Phone>0527575821</Phone>
    <Email>yaeli shushan@gmail.com</Email>
    <Role>Volunteer</Role>
    <Active>true</Active>
    <DistanceType>Aerial</DistanceType>
    <Latitude>32.434046</Latitude>
    <Longitude>34.918386</Longitude>
    <Password>yaeli shushan0527575821</Password>
    <Address>הרצל 60, חדרה</Address>
    <MaxDistanceForCall>17.864254240292016</MaxDistanceForCall>
  </Volunteer>
  <Volunteer>
    <Id>328184304</Id>
    <Name>avigail levy</Name>
    <Phone>0556723282</Phone>
    <Email>avigail levy@gmail.com</Email>
    <Role>Manager</Role>
    <Active>false</Active>
    <DistanceType>Aerial</DistanceType>
    <Latitude>31.9650847</Latitude>
    <Longitude>34.8031056</Longitude>
    <Password>avigail levy0556723282</Password>
    <Address>הרצל 77, ראשון לציון</Address>
    <MaxDistanceForCall>100</MaxDistanceForCall>
  </Volunteer>
</ArrayOfVolunteer>