<?xml version="1.0" encoding="utf-8"?>
<ArrayOfVolunteer xmlns:xsi="http://www.w3.org/2001/XMLSchema-instance" xmlns:xsd="http://www.w3.org/2001/XMLSchema">
	<Volunteer>
		<Id>
			037472641
		</Id>
		<Name>Dani Levy</Name>
		<Phone>0504133382</Phone>
		<Email>Dani Levy@gmail.com</Email>
		<Role>Volunteer</Role>
		<Active>true</Active>
		<DistanceType>TraveledByCar</DistanceType>
		<Latitude>31.965539</Latitude>
		<Longitude>34.803267</Longitude>
		<Password>Dani Levy0504133382</Password>
		<Address>דרך בגין 116, תל אביב</Address>
		<MaxDistanceForCall>21.30405036894627</MaxDistanceForCall>
	</Volunteer>
	<Volunteer>
		<Id>
			012345674
		</Id>
		<Name>Eli Amar</Name>
		<Phone>0556726282</Phone>
		<Email>Eli Amar@gmail.com</Email>
		<Role>Manager</Role>
		<Active>false</Active>
		<DistanceType>TraveledByCar</DistanceType>
		<Latitude>32.818271</Latitude>
		<Longitude>35.001148</Longitude>
		<Password>Eli Amar0556726282</Password>
		<Address>
			הרצל 16, רחובות
		</Address>
		<MaxDistanceForCall>43.20348552454442</MaxDistanceForCall>
	</Volunteer>
	<Volunteer>
		<Id>145698320</Id>
		<Name>Yair Cohen</Name>
		<Phone>0527175821</Phone>
		<Email>Yair Cohen@gmail.com</Email>
		<Role>Volunteer</Role>
		<Active>true</Active>
		<DistanceType>TraveledByCar</DistanceType>
		<Latitude>31.764492</Latitude>
		<Longitude>35.220554</Longitude>
		<Password>Yair Cohen0527175821</Password>
		<Address>
			ויצמן 1, כפר סבא
		</Address>
		<MaxDistanceForCall>0.5707906101708071</MaxDistanceForCall>
	</Volunteer>
	<Volunteer>
		<Id>
			206587441
		</Id>
		<Name>Ariela Levin</Name>
		<Phone>0527175820</Phone>
		<Email>Ariela Levin@gmail.com</Email>
		<Role>Manager</Role>
		<Active>false</Active>
		<DistanceType>TraveledByCar</DistanceType>
		<Latitude>32.174547</Latitude>
		<Longitude>34.905562</Longitude>
		<Password>Ariela Levin0527175820</Password>
		<Address>
			שדרות משה דיין 2, אשקלון
		</Address>
		<MaxDistanceForCall>12.449506810197464</MaxDistanceForCall>
	</Volunteer>
	<Volunteer>
		<Id>305768192</Id>
		<Name>Shira Israelof</Name>
		<Phone>0504156891</Phone>
		<Email>Shira Israelof@gmail.com</Email>
		<Role>Manager</Role>
		<Active>false</Active>
		<DistanceType>Aerial</DistanceType>
		<Latitude>32.068588</Latitude>
		<Longitude>34.769863</Longitude>
		<Password>Shira Israelof0504156891</Password>
		<Address>
			הרצל 91, נתניה
		</Address>
		<MaxDistanceForCall>41.491179120388</MaxDistanceForCall>
	</Volunteer>
	<Volunteer>
		<Id>516784023</Id>
		<Name>David Gold</Name>
		<Phone>0503133382</Phone>
		<Email>David Gold@gmail.com</Email>
		<Role>Volunteer</Role>
		<Active>true</Active>
		<DistanceType>TraveledByCar</DistanceType>
		<Latitude>32.084027</Latitude>
		<Longitude>34.812335</Longitude>
		<Password>David Gold0503133382</Password>
		<Address>
			שדרות בן גוריון 2, חיפה
		</Address>
		<MaxDistanceForCall>31.55202783377656</MaxDistanceForCall>
	</Volunteer>
	<Volunteer>
		<Id>639872145</Id>
		<Name>Rachel Green</Name>
		<Phone>0556724282</Phone>
		<Email>Rachel Green@gmail.com</Email>
		<Role>Manager</Role>
		<Active>false</Active>
		<DistanceType>walking</DistanceType>
		<Latitude>32.073187</Latitude>
		<Longitude>34.775301</Longitude>
		<Password>Rachel Green0556724282</Password>
		<Address>
			הרצל 45, רמלה
		</Address>
		<MaxDistanceForCall>25.515644298295182</MaxDistanceForCall>
	</Volunteer>
	<Volunteer>
		<Id>
			857362149
		</Id>
		<Name>Miriam Azulay</Name>
		<Phone>0527175221</Phone>
		<Email>Miriam Azulay@gmail.com</Email>
		<Role>Volunteer</Role>
		<Active>true</Active>
		<DistanceType>TraveledByCar</DistanceType>
		<Latitude>32.062819</Latitude>
		<Longitude>34.774061</Longitude>
		<Password>Miriam Azulay0527175221</Password>
		<Address>
			ז'בוטינסקי 160, בני ברק
		</Address>
		<MaxDistanceForCall>20.920008077642482</MaxDistanceForCall>
	</Volunteer>
	<Volunteer>
		<Id>
			998765432
		</Id>
		<Name>Noa Bar</Name>
		<Phone>0504160837</Phone>
		<Email>Noa Bar@gmail.com</Email>
		<Role>Volunteer</Role>
		<Active>true</Active>
		<DistanceType>TraveledByCar</DistanceType>
		<Latitude>32.051958</Latitude>
		<Longitude>34.758285</Longitude>
		<Password>Noa Bar0504160837</Password>
		<Address>
			דרך עכו 192, נהריה
		</Address>
		<MaxDistanceForCall>4.5919199356905525</MaxDistanceForCall>
	</Volunteer>
	<Volunteer>
		<Id>333766583</Id>
		<Name>Yael Harel</Name>
		<Phone>0504756891</Phone>
		<Email>Yael Harel@gmail.com</Email>
		<Role>Manager</Role>
		<Active>false</Active>
		<DistanceType>Aerial</DistanceType>
		<Latitude>32.084027</Latitude>
		<Longitude>34.812335</Longitude>
		<Password>Yael Harel0504756891</Password>
		<Address>
			הרצל 90, פתח תקווה
		</Address>
		<MaxDistanceForCall>39.56208495545746</MaxDistanceForCall>
	</Volunteer>
	<Volunteer>
		<Id>
			173645289
		</Id>
		<Name>avigail levy</Name>
		<Phone>0556723282</Phone>
		<Email>avigail levy@gmail.com</Email>
		<Role>Manager</Role>
		<Active>false</Active>
		<DistanceType>TraveledByCar</DistanceType>
		<Latitude>32.174547</Latitude>
		<Longitude>34.905562</Longitude>
		<Password>avigail levy0556723282</Password>
		<Address>
			יגאל אלון 37, תל אביב
		</Address>
		<MaxDistanceForCall>17.25196002499853</MaxDistanceForCall>
	</Volunteer>
	<Volunteer>
		<Id>251378496</Id>
		<Name>yaeli shushan</Name>
		<Phone>0527575821</Phone>
		<Email>yaeli shushan@gmail.com</Email>
		<Role>Volunteer</Role>
		<Active>true</Active>
		<DistanceType>TraveledByCar</DistanceType>
		<Latitude>32.818271</Latitude>
		<Longitude>35.001148</Longitude>
		<Password>yaeli shushan0527575821</Password>
		<Address>
			העצמאות 63, בת ים
		</Address>
		<MaxDistanceForCall>40.50431861892058</MaxDistanceForCall>
	</Volunteer>
	<Volunteer>
		<Id>368479215</Id>
		<Name>שרה</Name>
		<Phone>0555555545</Phone>
		<Email>sara@gmail.com</Email>
		<Role>Volunteer</Role>
		<Active>false</Active>
		<DistanceType>Aerial</DistanceType>
		<Latitude>32.0820584</Latitude>
		<Longitude>34.8273464</Longitude>
		<Password>sara123</Password>
		<Address>אהרונסון 9, בני ברק</Address>
		<MaxDistanceForCall>22</MaxDistanceForCall>
	</Volunteer>
	<Volunteer>
		<Id>327773271</Id>
		<Name>אביגיל לוי</Name>
		<Phone>0556726282</Phone>
		<Email>avigail6282@gmail.com</Email>
		<Role>Manager</Role>
		<Active>true</Active>
		<DistanceType>TraveledByCar</DistanceType>
		<Latitude>32.0988842</Latitude>
		<Longitude>34.8343787</Longitude>
		<Password>avigail147852369</Password>
		<Address>שלוש השעות 30, בני ברק</Address>
		<MaxDistanceForCall>1000</MaxDistanceForCall>
	</Volunteer>
	<Volunteer>
		<Id>492786531</Id>
		<Name>חיה</Name>
		<Phone>0541236598</Phone>
		<Email>c@gmail.com</Email>
		<Role>Volunteer</Role>
		<Active>false</Active>
		<DistanceType>walking</DistanceType>
		<Latitude>32.0988842</Latitude>
		<Longitude>34.8343787</Longitude>
		<Password>12345678</Password>
		<Address>שלוש השעות 30, בני ברק</Address>
		<MaxDistanceForCall>1000</MaxDistanceForCall>
	</Volunteer>
</ArrayOfVolunteer>