<?xml version="1.0" encoding="utf-8"?>
<ArrayOfVolunteer xmlns:xsi="http://www.w3.org/2001/XMLSchema-instance" xmlns:xsd="http://www.w3.org/2001/XMLSchema">
  <Volunteer>
    <Id>328462635</Id>
    <Name>Dani Levy</Name>
    <Phone>0504133382</Phone>
    <Email>Dani Levy@gmail.com</Email>
    <Role>Volunteer</Role>
    <Active>true</Active>
    <DistanceType>TraveledByCar</DistanceType>
    <Latitude>32.687209</Latitude>
    <Longitude>35.420792</Longitude>
    <Password>Dani Levy0504133382</Password>
    <Address>המושבה 7, כפר תבור</Address>
    <MaxDistanceForCall>6.012571684028151</MaxDistanceForCall>
  </Volunteer>
  <Volunteer>
    <Id>327773271</Id>
    <Name>Eli Amar</Name>
    <Phone>0556726282</Phone>
    <Email>Eli Amar@gmail.com</Email>
    <Role>Manager</Role>
    <Active>false</Active>
    <DistanceType>TraveledByCar</DistanceType>
    <Latitude>31.965539</Latitude>
    <Longitude>34.803267</Longitude>
    <Password>Eli Amar0556726282</Password>
    <Address>הרצל 77, ראשון לציון</Address>
    <MaxDistanceForCall>1.5870551373304453</MaxDistanceForCall>
  </Volunteer>
  <Volunteer>
    <Id>327883591</Id>
    <Name>Yair Cohen</Name>
    <Phone>0527175821</Phone>
    <Email>Yair Cohen@gmail.com</Email>
    <Role>Volunteer</Role>
    <Active>true</Active>
    <DistanceType>Aerial</DistanceType>
    <Latitude>32.01333</Latitude>
    <Longitude>34.776073</Longitude>
    <Password>Yair Cohen0527175821</Password>
    <Address>בר אילן 10, חולון</Address>
    <MaxDistanceForCall>15.34619063685102</MaxDistanceForCall>
  </Volunteer>
  <Volunteer>
    <Id>327887048</Id>
    <Name>Ariela Levin</Name>
    <Phone>0527175820</Phone>
    <Email>Ariela Levin@gmail.com</Email>
    <Role>Manager</Role>
    <Active>false</Active>
    <DistanceType>Aerial</DistanceType>
    <Latitude>32.084027</Latitude>
    <Longitude>34.812335</Longitude>
    <Password>Ariela Levin0527175820</Password>
    <Address>בן גוריון 22, רמת גן</Address>
    <MaxDistanceForCall>46.50212821544355</MaxDistanceForCall>
  </Volunteer>
  <Volunteer>
    <Id>327934857</Id>
    <Name>Dina Klein</Name>
    <Phone>0504160838</Phone>
    <Email>Dina Klein@gmail.com</Email>
    <Role>Volunteer</Role>
    <Active>true</Active>
    <DistanceType>walking</DistanceType>
    <Latitude>32.609877</Latitude>
    <Longitude>35.288423</Longitude>
    <Password>Dina Klein0504160838</Password>
    <Address>בגין 4, עפולה</Address>
    <MaxDistanceForCall>49.1940018814098</MaxDistanceForCall>
  </Volunteer>
  <Volunteer>
    <Id>328115522</Id>
    <Name>Shira Israelof</Name>
    <Phone>0504156891</Phone>
    <Email>Shira Israelof@gmail.com</Email>
    <Role>Manager</Role>
    <Active>false</Active>
    <DistanceType>TraveledByCar</DistanceType>
    <Latitude>32.070446</Latitude>
    <Longitude>34.794667</Longitude>
    <Password>Shira Israelof0504156891</Password>
    <Address>הרצל 1, תל אביב</Address>
    <MaxDistanceForCall>16.992618539409705</MaxDistanceForCall>
  </Volunteer>
  <Volunteer>
    <Id>328118245</Id>
    <Name>David Gold</Name>
    <Phone>0503133382</Phone>
    <Email>David Gold@gmail.com</Email>
    <Role>Volunteer</Role>
    <Active>true</Active>
    <DistanceType>Aerial</DistanceType>
    <Latitude>32.081943</Latitude>
    <Longitude>34.768878</Longitude>
    <Password>David Gold0503133382</Password>
    <Address>בן יהודה 34, תל אביב</Address>
    <MaxDistanceForCall>48.449658751240484</MaxDistanceForCall>
  </Volunteer>
  <Volunteer>
    <Id>328119425</Id>
    <Name>Rachel Green</Name>
    <Phone>0556724282</Phone>
    <Email>Rachel Green@gmail.com</Email>
    <Role>Manager</Role>
    <Active>false</Active>
    <DistanceType>TraveledByCar</DistanceType>
    <Latitude>32.434046</Latitude>
    <Longitude>34.918386</Longitude>
    <Password>Rachel Green0556724282</Password>
    <Address>הרצל 60, חדרה</Address>
    <MaxDistanceForCall>47.79869840866341</MaxDistanceForCall>
  </Volunteer>
  <Volunteer>
    <Id>328128061</Id>
    <Name>Miriam Azulay</Name>
    <Phone>0527175221</Phone>
    <Email>Miriam Azulay@gmail.com</Email>
    <Role>Volunteer</Role>
    <Active>true</Active>
    <DistanceType>TraveledByCar</DistanceType>
    <Latitude>32.078932</Latitude>
    <Longitude>34.786432</Longitude>
    <Password>Miriam Azulay0527175221</Password>
    <Address>דרך בגין 132, תל אביב</Address>
    <MaxDistanceForCall>22.297685407511075</MaxDistanceForCall>
  </Volunteer>
  <Volunteer>
    <Id>328159801</Id>
    <Name>Eyal Shani</Name>
    <Phone>0528175820</Phone>
    <Email>Eyal Shani@gmail.com</Email>
    <Role>Manager</Role>
    <Active>false</Active>
    <DistanceType>TraveledByCar</DistanceType>
    <Latitude>32.090468</Latitude>
    <Longitude>34.878975</Longitude>
    <Password>Eyal Shani0528175820</Password>
    <Address>ז'בוטינסקי 33, פתח תקווה</Address>
    <MaxDistanceForCall>27.57558396806835</MaxDistanceForCall>
  </Volunteer>
  <Volunteer>
    <Id>328177191</Id>
    <Name>Noa Bar</Name>
    <Phone>0504160837</Phone>
    <Email>Noa Bar@gmail.com</Email>
    <Role>Volunteer</Role>
    <Active>true</Active>
    <DistanceType>TraveledByCar</DistanceType>
    <Latitude>32.3320151</Latitude>
    <Longitude>34.855212</Longitude>
    <Password>Noa Bar0504160837</Password>
    <Address>הרצל 8, נתניה</Address>
    <MaxDistanceForCall>21.192372982356755</MaxDistanceForCall>
  </Volunteer>
  <Volunteer>
    <Id>328178371</Id>
    <Name>Yael Harel</Name>
    <Phone>0504756891</Phone>
    <Email>Yael Harel@gmail.com</Email>
    <Role>Manager</Role>
    <Active>false</Active>
    <DistanceType>TraveledByCar</DistanceType>
    <Latitude>32.019664</Latitude>
    <Longitude>34.745525</Longitude>
    <Password>Yael Harel0504756891</Password>
    <Address>בלפור 14, בת ים</Address>
    <MaxDistanceForCall>3.3933434458519485</MaxDistanceForCall>
  </Volunteer>
  <Volunteer>
    <Id>328183934</Id>
    <Name>zipi salomon</Name>
    <Phone>0504113382</Phone>
    <Email>zipi salomon@gmail.com</Email>
    <Role>Volunteer</Role>
    <Active>true</Active>
    <DistanceType>Aerial</DistanceType>
    <Latitude>32.111427</Latitude>
    <Longitude>34.840487</Longitude>
    <Password>zipi salomon0504113382</Password>
    <Address>ראול ולנברג 24, תל אביב</Address>
    <MaxDistanceForCall>32.02765725998197</MaxDistanceForCall>
  </Volunteer>
  <Volunteer>
    <Id>328184304</Id>
    <Name>avigail levy</Name>
    <Phone>0556723282</Phone>
    <Email>avigail levy@gmail.com</Email>
    <Role>Manager</Role>
    <Active>false</Active>
    <DistanceType>walking</DistanceType>
    <Latitude>32.802379</Latitude>
    <Longitude>34.985995</Longitude>
    <Password>avigail levy0556723282</Password>
    <Address>שדרות הנשיא 120, חיפה</Address>
    <MaxDistanceForCall>3.099884348148507</MaxDistanceForCall>
  </Volunteer>
  <Volunteer>
    <Id>328216437</Id>
    <Name>yaeli shushan</Name>
    <Phone>0527575821</Phone>
    <Email>yaeli shushan@gmail.com</Email>
    <Role>Volunteer</Role>
    <Active>true</Active>
    <DistanceType>walking</DistanceType>
    <Latitude>33.208588</Latitude>
    <Longitude>35.570471</Longitude>
    <Password>yaeli shushan0527575821</Password>
    <Address>שפירא 2, קריית שמונה</Address>
    <MaxDistanceForCall>45.31649386379118</MaxDistanceForCall>
  </Volunteer>
</ArrayOfVolunteer>